{
"type": "FeatureCollection",
"name": "points",
"features": [
{ "type": "Feature", "properties": { "osm_id": "448467359", "name": "Aaraghar" }, "geometry": { "type": "Point", "coordinates": [ 78.0488889, 30.3093452 ] } },
{ "type": "Feature", "properties": { "osm_id": "603715273", "other_tags": "\"railway\"=>\"level_crossing\"" }, "geometry": { "type": "Point", "coordinates": [ 78.0440661, 30.2932656 ] } },
{ "type": "Feature", "properties": { "osm_id": "1182816652", "name": "Mussoorie bus stand", "other_tags": "\"amenity\"=>\"bus_station\"" }, "geometry": { "type": "Point", "coordinates": [ 78.0334102, 30.3157047 ] } },
{ "type": "Feature", "properties": { "osm_id": "1189493497", "other_tags": "\"amenity\"=>\"atm\",\"currency:INR\"=>\"yes\",\"opening_hours\"=>\"24/7\"" }, "geometry": { "type": "Point", "coordinates": [ 78.0340241, 30.3140638 ] } },
{ "type": "Feature", "properties": { "osm_id": "1697822274", "name": "Heart Clinic", "other_tags": "\"amenity\"=>\"hospital\",\"emergency\"=>\"yes\"" }, "geometry": { "type": "Point", "coordinates": [ 78.0500178, 30.3179409 ] } },
{ "type": "Feature", "properties": { "osm_id": "1697822276", "name": "General Hospital", "other_tags": "\"amenity\"=>\"hospital\",\"emergency\"=>\"yes\"" }, "geometry": { "type": "Point", "coordinates": [ 78.0503182, 30.319395 ] } },
{ "type": "Feature", "properties": { "osm_id": "1697826481", "name": "Col. Brown Cambridge Scool", "other_tags": "\"amenity\"=>\"school\"" }, "geometry": { "type": "Point", "coordinates": [ 78.0580698, 30.3219974 ] } },
{ "type": "Feature", "properties": { "osm_id": "1705564192", "other_tags": "\"shop\"=>\"bakery\"" }, "geometry": { "type": "Point", "coordinates": [ 78.0495951, 30.3154474 ] } },
{ "type": "Feature", "properties": { "osm_id": "1705564194", "other_tags": "\"shop\"=>\"convenience\"" }, "geometry": { "type": "Point", "coordinates": [ 78.0497668, 30.3156327 ] } },
{ "type": "Feature", "properties": { "osm_id": "1705564196", "other_tags": "\"shop\"=>\"confectionery\"" }, "geometry": { "type": "Point", "coordinates": [ 78.0496756, 30.3154104 ] } },
{ "type": "Feature", "properties": { "osm_id": "1705564199", "other_tags": "\"shop\"=>\"convenience\"" }, "geometry": { "type": "Point", "coordinates": [ 78.0497614, 30.3153733 ] } },
{ "type": "Feature", "properties": { "osm_id": "1854105148", "name": "CMI", "other_tags": "\"amenity\"=>\"hospital\"" }, "geometry": { "type": "Point", "coordinates": [ 78.0474883, 30.3121892 ] } },
{ "type": "Feature", "properties": { "osm_id": "1854114246", "name": "Hill queen", "other_tags": "\"amenity\"=>\"bar\"" }, "geometry": { "type": "Point", "coordinates": [ 78.0487629, 30.3102626 ] } },
{ "type": "Feature", "properties": { "osm_id": "1854124474", "name": "Convent of Jesus & Mary", "other_tags": "\"amenity\"=>\"school\"" }, "geometry": { "type": "Point", "coordinates": [ 78.0486828, 30.3222578 ] } },
{ "type": "Feature", "properties": { "osm_id": "1883467806", "other_tags": "\"railway\"=>\"buffer_stop\"" }, "geometry": { "type": "Point", "coordinates": [ 78.0335937, 30.3140445 ] } },
{ "type": "Feature", "properties": { "osm_id": "1883467814", "other_tags": "\"railway\"=>\"buffer_stop\"" }, "geometry": { "type": "Point", "coordinates": [ 78.0328308, 30.3160983 ] } },
{ "type": "Feature", "properties": { "osm_id": "2355550065", "other_tags": "\"ford\"=>\"yes\"" }, "geometry": { "type": "Point", "coordinates": [ 78.0643058, 30.3056707 ] } },
{ "type": "Feature", "properties": { "osm_id": "2355568977", "highway": "mini_roundabout" }, "geometry": { "type": "Point", "coordinates": [ 78.0289731, 30.3175806 ] } },
{ "type": "Feature", "properties": { "osm_id": "2355569009", "name": "Moti Bazar Chowk" }, "geometry": { "type": "Point", "coordinates": [ 78.0375149, 30.3215233 ] } },
{ "type": "Feature", "properties": { "osm_id": "2355640234", "man_made": "tower" }, "geometry": { "type": "Point", "coordinates": [ 78.0631692, 30.3229513 ] } },
{ "type": "Feature", "properties": { "osm_id": "2358243253", "other_tags": "\"railway\"=>\"level_crossing\"" }, "geometry": { "type": "Point", "coordinates": [ 78.0415008, 30.2959732 ] } },
{ "type": "Feature", "properties": { "osm_id": "2388599930", "man_made": "water_tower" }, "geometry": { "type": "Point", "coordinates": [ 78.0613482, 30.3205812 ] } },
{ "type": "Feature", "properties": { "osm_id": "2671382002", "name": "Dehradun", "ref": "DDN", "other_tags": "\"addr:postcode\"=>\"248002\",\"addr:street\"=>\"Paltan Bazar Road\",\"internet_access\"=>\"no\",\"name:hi\"=>\"देहरादून\",\"name:ja\"=>\"デヘラードゥーン\",\"name:pa\"=>\"ਦੇਹਰਾਦੂਨ\",\"network\"=>\"IR\",\"operator\"=>\"NR\",\"public_transport\"=>\"station\",\"railway\"=>\"station\",\"train\"=>\"yes\",\"wikidata\"=>\"Q15213509\"" }, "geometry": { "type": "Point", "coordinates": [ 78.0335573, 30.3143365 ] } },
{ "type": "Feature", "properties": { "osm_id": "2976115744", "name": "Kaveri Departmental Store", "other_tags": "\"shop\"=>\"convenience\"" }, "geometry": { "type": "Point", "coordinates": [ 78.0457667, 30.3196972 ] } },
{ "type": "Feature", "properties": { "osm_id": "2976115745", "name": "Shiv Mandir", "other_tags": "\"amenity\"=>\"place_of_worship\",\"religion\"=>\"hindu\"" }, "geometry": { "type": "Point", "coordinates": [ 78.0460175, 30.3201209 ] } },
{ "type": "Feature", "properties": { "osm_id": "3500433106", "name": "Uttarakhand Jal Vidyut", "other_tags": "\"building\"=>\"commercial\"" }, "geometry": { "type": "Point", "coordinates": [ 78.0426262, 30.3222587 ] } },
{ "type": "Feature", "properties": { "osm_id": "3864944610", "other_tags": "\"railway\"=>\"buffer_stop\"" }, "geometry": { "type": "Point", "coordinates": [ 78.033067, 30.3161311 ] } },
{ "type": "Feature", "properties": { "osm_id": "3864944611", "other_tags": "\"railway\"=>\"buffer_stop\"" }, "geometry": { "type": "Point", "coordinates": [ 78.0327373, 30.3161456 ] } },
{ "type": "Feature", "properties": { "osm_id": "3864944612", "other_tags": "\"railway\"=>\"buffer_stop\"" }, "geometry": { "type": "Point", "coordinates": [ 78.033113, 30.3161365 ] } },
{ "type": "Feature", "properties": { "osm_id": "3865507608", "other_tags": "\"railway\"=>\"buffer_stop\"" }, "geometry": { "type": "Point", "coordinates": [ 78.0328965, 30.3161522 ] } },
{ "type": "Feature", "properties": { "osm_id": "4030165449", "name": "Western Union", "other_tags": "\"amenity\"=>\"money_transfer\",\"office\"=>\"financial\"" }, "geometry": { "type": "Point", "coordinates": [ 78.0426115, 30.3225626 ] } },
{ "type": "Feature", "properties": { "osm_id": "4254504792", "name": "Government Doon Hospital", "other_tags": "\"addr:district\"=>\"Dehradun\",\"addr:full\"=>\"Near Mkp Inter College\",\"addr:postcode\"=>\"248001\",\"addr:state\"=>\"Uttarakhand\",\"amenity\"=>\"hospital\",\"opening_hours\"=>\"Mo-Sa\"" }, "geometry": { "type": "Point", "coordinates": [ 78.0422984, 30.3196005 ] } },
{ "type": "Feature", "properties": { "osm_id": "4255814491", "name": "wedding by fourth munky", "other_tags": "\"addr:city\"=>\"Dehradun\",\"addr:housenumber\"=>\"Shop No 28,\",\"addr:postcode\"=>\"248001\",\"addr:street\"=>\"Meedo Arcade Adjacent to Pine Hall School\",\"amenity\"=>\"hospital\",\"emergency\"=>\"yes\",\"healthcare:speciality\"=>\"wedding\"" }, "geometry": { "type": "Point", "coordinates": [ 78.0424823, 30.3184253 ] } },
{ "type": "Feature", "properties": { "osm_id": "4741328567", "name": "Prince Chowk" }, "geometry": { "type": "Point", "coordinates": [ 78.0375287, 30.3156474 ] } },
{ "type": "Feature", "properties": { "osm_id": "4741334105", "name": "Pipal Mandi Chowk" }, "geometry": { "type": "Point", "coordinates": [ 78.0346219, 30.3184861 ] } },
{ "type": "Feature", "properties": { "osm_id": "4741337029", "name": "future auto wheels pvt ltd" }, "geometry": { "type": "Point", "coordinates": [ 78.0369537, 30.3159535 ] } },
{ "type": "Feature", "properties": { "osm_id": "4741342781", "name": "Hanuman Chowk", "man_made": "yes" }, "geometry": { "type": "Point", "coordinates": [ 78.0335555, 30.3185044 ] } },
{ "type": "Feature", "properties": { "osm_id": "4741344181", "name": "Guru Ram Rai Garden", "other_tags": "\"leisure\"=>\"park\"" }, "geometry": { "type": "Point", "coordinates": [ 78.0324932, 30.3184819 ] } },
{ "type": "Feature", "properties": { "osm_id": "4741344926", "name": "Laxminarayan mandir", "other_tags": "\"amenity\"=>\"place_of_worship\",\"religion\"=>\"hindu\"" }, "geometry": { "type": "Point", "coordinates": [ 78.034415, 30.3193548 ] } },
{ "type": "Feature", "properties": { "osm_id": "4741346353", "name": "Darbar Sahib Sri Guru Ram Rai Maharaja", "other_tags": "\"addr:city\"=>\"dehradun\",\"addr:postcode\"=>\"248002\",\"addr:street\"=>\"Maliyan st\",\"amenity\"=>\"place_of_worship\",\"religion\"=>\"sikh\"" }, "geometry": { "type": "Point", "coordinates": [ 78.0319514, 30.3179957 ] } },
{ "type": "Feature", "properties": { "osm_id": "4741356544", "name": "Sabzi Mandi", "other_tags": "\"amenity\"=>\"marketplace\"" }, "geometry": { "type": "Point", "coordinates": [ 78.0342192, 30.3194544 ] } },
{ "type": "Feature", "properties": { "osm_id": "4741363718", "name": "Shampur Chowk" }, "geometry": { "type": "Point", "coordinates": [ 78.0324838, 30.3201044 ] } },
{ "type": "Feature", "properties": { "osm_id": "4741371551", "name": "Shani Dev Temple", "other_tags": "\"amenity\"=>\"place_of_worship\",\"religion\"=>\"hindu\"" }, "geometry": { "type": "Point", "coordinates": [ 78.0325079, 30.319841 ] } },
{ "type": "Feature", "properties": { "osm_id": "4741389520", "name": "CNI boys school", "other_tags": "\"amenity\"=>\"school\"" }, "geometry": { "type": "Point", "coordinates": [ 78.0393824, 30.3222261 ] } },
{ "type": "Feature", "properties": { "osm_id": "4741397745", "name": "Rama Market", "other_tags": "\"amenity\"=>\"marketplace\"" }, "geometry": { "type": "Point", "coordinates": [ 78.0390069, 30.3210916 ] } },
{ "type": "Feature", "properties": { "osm_id": "5094461427", "name": "Sehetrdhara", "other_tags": "\"name:en\"=>\"Sehetrdhara\",\"tourism\"=>\"attraction\"" }, "geometry": { "type": "Point", "coordinates": [ 78.0373119, 30.3153455 ] } },
{ "type": "Feature", "properties": { "osm_id": "5094461428", "name": "2 Tyagi Road Dehradun", "other_tags": "\"name:en\"=>\"2 Tyagi Road Dehradun\",\"office\"=>\"company\"" }, "geometry": { "type": "Point", "coordinates": [ 78.0373022, 30.3153329 ] } },
{ "type": "Feature", "properties": { "osm_id": "5871981762", "name": "Tibetan market", "other_tags": "\"addr:city\"=>\"Dehradun\",\"addr:postcode\"=>\"248001\",\"addr:street\"=>\"Convent Road\",\"amenity\"=>\"marketplace\"" }, "geometry": { "type": "Point", "coordinates": [ 78.0463177, 30.3233972 ] } },
{ "type": "Feature", "properties": { "osm_id": "5871981782", "name": "Statue of Buddha", "other_tags": "\"artwork_type\"=>\"statue\",\"tourism\"=>\"artwork\"" }, "geometry": { "type": "Point", "coordinates": [ 78.0453841, 30.3219051 ] } },
{ "type": "Feature", "properties": { "osm_id": "5871990759", "name": "Buddhist Temple", "other_tags": "\"addr:city\"=>\"Dehradun\",\"addr:postcode\"=>\"248001\",\"amenity\"=>\"place_of_worship\",\"religion\"=>\"buddhist\"" }, "geometry": { "type": "Point", "coordinates": [ 78.0471998, 30.3230726 ] } },
{ "type": "Feature", "properties": { "osm_id": "6066341985", "name": "Doon Dharbaar", "other_tags": "\"amenity\"=>\"restaurant\",\"diet:vegetarian\"=>\"yes\"" }, "geometry": { "type": "Point", "coordinates": [ 78.0406542, 30.3205719 ] } },
{ "type": "Feature", "properties": { "osm_id": "6066342085", "name": "Hotel Royal", "other_tags": "\"building\"=>\"yes\",\"rooms\"=>\"yes\",\"tourism\"=>\"hotel\"" }, "geometry": { "type": "Point", "coordinates": [ 78.0336059, 30.3163847 ] } },
{ "type": "Feature", "properties": { "osm_id": "6369597585", "name": "SRL Pathology Lab and Diagnostic Center", "other_tags": "\"addr:city\"=>\"Dehradun\",\"addr:postcode\"=>\"248001\",\"addr:street\"=>\"Convent Rd, Race Course\",\"healthcare\"=>\"centre\"" }, "geometry": { "type": "Point", "coordinates": [ 78.0463782, 30.3204094 ] } },
{ "type": "Feature", "properties": { "osm_id": "6369598773", "name": "Asian Book Depot", "other_tags": "\"shop\"=>\"stationery\"" }, "geometry": { "type": "Point", "coordinates": [ 78.0466639, 30.3207011 ] } },
{ "type": "Feature", "properties": { "osm_id": "6369924438", "name": "BSNL Office", "other_tags": "\"office\"=>\"government\"" }, "geometry": { "type": "Point", "coordinates": [ 78.0436309, 30.3224788 ] } },
{ "type": "Feature", "properties": { "osm_id": "6581821447", "name": "Deen Dayal Upadhyay hospital", "other_tags": "\"addr:block\"=>\"Raipur\",\"addr:district\"=>\"Dehradun\",\"addr:full\"=>\"Kharjan Road\",\"addr:postcode\"=>\"248001\",\"addr:state\"=>\"Uttarakhand\",\"amenity\"=>\"hospital\",\"healthcare\"=>\"hospital\",\"healthcare:speciality\"=>\"general\"" }, "geometry": { "type": "Point", "coordinates": [ 78.0576667, 30.3207776 ] } },
{ "type": "Feature", "properties": { "osm_id": "6581821448", "name": "Doon Girls", "other_tags": "\"amenity\"=>\"school\"" }, "geometry": { "type": "Point", "coordinates": [ 78.0546571, 30.3226624 ] } },
{ "type": "Feature", "properties": { "osm_id": "6581821449", "name": "Mdda Complex", "other_tags": "\"shop\"=>\"supermarket\"" }, "geometry": { "type": "Point", "coordinates": [ 78.0630965, 30.3131977 ] } },
{ "type": "Feature", "properties": { "osm_id": "6725925776", "name": "St. John's Anglican Church", "other_tags": "\"addr:city\"=>\"Dehradun\",\"addr:postcode\"=>\"248001\",\"addr:street\"=>\"St. John’s Anglican Church, Nardev Shastri Marg, Race Course\",\"amenity\"=>\"place_of_worship\",\"religion\"=>\"christian\"" }, "geometry": { "type": "Point", "coordinates": [ 78.0424153, 30.320865 ] } },
{ "type": "Feature", "properties": { "osm_id": "6725925777", "name": "Kali Mandir", "other_tags": "\"addr:city\"=>\"Dehradun\",\"addr:postcode\"=>\"248001\",\"addr:street\"=>\"Cross Road Opp St. Thomas College, Darshan Lal Chowk\",\"amenity\"=>\"place_of_worship\",\"religion\"=>\"hindu\"" }, "geometry": { "type": "Point", "coordinates": [ 78.0441983, 30.3222875 ] } },
{ "type": "Feature", "properties": { "osm_id": "6738229796", "name": "Summer Valley", "other_tags": "\"amenity\"=>\"school\"" }, "geometry": { "type": "Point", "coordinates": [ 78.0560347, 30.3047642 ] } },
{ "type": "Feature", "properties": { "osm_id": "6738230474", "name": "Shaktimaan Filling Station", "other_tags": "\"amenity\"=>\"fuel\",\"brand\"=>\"Indian Oil\",\"fuel:diesel\"=>\"yes\",\"shop\"=>\"no\",\"wheelchair\"=>\"no\"" }, "geometry": { "type": "Point", "coordinates": [ 78.0404209, 30.3057062 ] } },
{ "type": "Feature", "properties": { "osm_id": "6738243382", "name": "Doon International", "other_tags": "\"amenity\"=>\"school\"" }, "geometry": { "type": "Point", "coordinates": [ 78.053382, 30.3132069 ] } },
{ "type": "Feature", "properties": { "osm_id": "6738252095", "name": "Shanti Tennis Academy", "other_tags": "\"sport\"=>\"table_tennis\"" }, "geometry": { "type": "Point", "coordinates": [ 78.0539077, 30.309018 ] } },
{ "type": "Feature", "properties": { "osm_id": "6738258163", "name": "SGRR PG College", "other_tags": "\"amenity\"=>\"college\",\"wheelchair\"=>\"no\"" }, "geometry": { "type": "Point", "coordinates": [ 78.0320129, 30.3063828 ] } },
{ "type": "Feature", "properties": { "osm_id": "6902140933", "name": "Doon Hospital, District Hospital Blood Bank", "other_tags": "\"addr:city\"=>\"Dehradun\",\"addr:district\"=>\"DEHRADUN\",\"addr:full\"=>\"Court Road, Nagar Nigam, Dehradun\",\"addr:postcode\"=>\"248001\",\"addr:state\"=>\"Uttarakhand\",\"amenity\"=>\"blood_bank\",\"contact:mobile\"=>\"9456174232\",\"email\"=>\"doonbloodbank16@gmail.com\",\"opening_hours\"=>\"24/7\",\"operator:type\"=>\"government\"" }, "geometry": { "type": "Point", "coordinates": [ 78.0422025, 30.319113 ] } },
{ "type": "Feature", "properties": { "osm_id": "6950590512", "name": "Aadya heart care centre", "other_tags": "\"addr:district\"=>\"Dehradun\",\"addr:full\"=>\"35/1, Ec Road\",\"addr:postcode\"=>\"248001\",\"addr:state\"=>\"Uttarakhand\",\"amenity\"=>\"clinic\"" }, "geometry": { "type": "Point", "coordinates": [ 78.0506355, 30.3189236 ] } },
{ "type": "Feature", "properties": { "osm_id": "6950595594", "name": "Param Hospital, Dehradun", "other_tags": "\"addr:district\"=>\"Dehradun\",\"addr:full\"=>\"20 , Balbir Road\",\"addr:postcode\"=>\"248001\",\"addr:state\"=>\"Uttarakhand\",\"amenity\"=>\"hospital\"" }, "geometry": { "type": "Point", "coordinates": [ 78.0540472, 30.3068298 ] } },
{ "type": "Feature", "properties": { "osm_id": "6950904473", "name": "Yash Respiratory and Medical Disease Centre", "other_tags": "\"addr:district\"=>\"Dehradun\",\"addr:full\"=>\"22, Curzun ( Nehru Road) Near Convent School Avas Vikas Bhawan\",\"addr:postcode\"=>\"248001\",\"addr:state\"=>\"Uttarakhand\",\"amenity\"=>\"hospital\"" }, "geometry": { "type": "Point", "coordinates": [ 78.054412, 30.3163536 ] } },
{ "type": "Feature", "properties": { "osm_id": "6951960632", "name": "Chaurasia Nursing Home", "other_tags": "\"addr:district\"=>\"Dehradun\",\"addr:full\"=>\"31/2-1, East Canal Road\",\"addr:postcode\"=>\"248001\",\"addr:state\"=>\"Uttarakhand\",\"amenity\"=>\"clinic\"" }, "geometry": { "type": "Point", "coordinates": [ 78.0527356, 30.318361 ] } },
{ "type": "Feature", "properties": { "osm_id": "6951986574", "name": "Guru Teg Bahadur Sahib Hospital", "other_tags": "\"addr:district\"=>\"Dehradun\",\"addr:full\"=>\"Govind Nagar,Race Course\",\"addr:postcode\"=>\"248001\",\"addr:state\"=>\"Uttarakhand\",\"amenity\"=>\"hospital\"" }, "geometry": { "type": "Point", "coordinates": [ 78.04785, 30.3112213 ] } },
{ "type": "Feature", "properties": { "osm_id": "6952010057", "name": "Hari Ram Kohli Nursing Home", "other_tags": "\"addr:district\"=>\"Dehradun\",\"addr:full\"=>\"2, Haridwar Road Dehradun\",\"addr:postcode\"=>\"248001\",\"addr:state\"=>\"Uttarakhand\",\"amenity\"=>\"clinic\"" }, "geometry": { "type": "Point", "coordinates": [ 78.0436885, 30.3152514 ] } },
{ "type": "Feature", "properties": { "osm_id": "6952139077", "name": "Kamra`s Urinary and Surgical Diseasea Centre", "other_tags": "\"addr:district\"=>\"Dehradun\",\"addr:full\"=>\"8 Inder Road\",\"addr:postcode\"=>\"248001\",\"addr:state\"=>\"Uttarakhand\",\"amenity\"=>\"hospital\"" }, "geometry": { "type": "Point", "coordinates": [ 78.0523923, 30.3143113 ] } },
{ "type": "Feature", "properties": { "osm_id": "6953276770", "name": "Rawal Nursing Home and Polyclinic", "other_tags": "\"addr:district\"=>\"Dehradun\",\"addr:full\"=>\"35/1, E.C. Road, Dehradun, Uttaranchal\",\"addr:postcode\"=>\"248001\",\"addr:state\"=>\"Uttarakhand\",\"amenity\"=>\"clinic\"" }, "geometry": { "type": "Point", "coordinates": [ 78.050673, 30.3190186 ] } },
{ "type": "Feature", "properties": { "osm_id": "6953301797", "name": "Sharda Surgical and Urology Centre", "other_tags": "\"addr:district\"=>\"Dehradun\",\"addr:full\"=>\"7,Inder Road\",\"addr:postcode\"=>\"248001\",\"addr:state\"=>\"Uttarakhand\",\"amenity\"=>\"hospital\"" }, "geometry": { "type": "Point", "coordinates": [ 78.0512014, 30.3153417 ] } },
{ "type": "Feature", "properties": { "osm_id": "6953552504", "name": "Oli Eye Hospital", "other_tags": "\"addr:district\"=>\"Dehradun\",\"addr:full\"=>\"Araghar Chowk, 57, Hardwar Road\",\"addr:postcode\"=>\"248001\",\"addr:state\"=>\"Uttarakhand\",\"amenity\"=>\"hospital\"" }, "geometry": { "type": "Point", "coordinates": [ 78.0485205, 30.310353 ] } },
{ "type": "Feature", "properties": { "osm_id": "6953930189", "name": "Garg ENT and Dental Clinic", "other_tags": "\"addr:district\"=>\"Dehradun\",\"addr:full\"=>\"1 Darshani Gate\",\"addr:postcode\"=>\"248001\",\"addr:state\"=>\"Uttarakhand\",\"amenity\"=>\"hospital\"" }, "geometry": { "type": "Point", "coordinates": [ 78.0333661, 30.3175726 ] } },
{ "type": "Feature", "properties": { "osm_id": "6953935730", "name": "Renal Care and Dialysis Center", "other_tags": "\"addr:district\"=>\"Dehradun\",\"addr:full\"=>\"No. 7, Inder Road, Dalanwala\",\"addr:postcode\"=>\"248001\",\"addr:state\"=>\"Uttarakhand\",\"amenity\"=>\"hospital\"" }, "geometry": { "type": "Point", "coordinates": [ 78.0513221, 30.3152005 ] } },
{ "type": "Feature", "properties": { "osm_id": "6954359357", "name": "Suri Nursing Home, Dehradun", "other_tags": "\"addr:district\"=>\"Dehradun\",\"addr:full\"=>\"36 , Inder Road\",\"addr:postcode\"=>\"248001\",\"addr:state\"=>\"Uttarakhand\",\"amenity\"=>\"clinic\"" }, "geometry": { "type": "Point", "coordinates": [ 78.0601144, 30.3101527 ] } },
{ "type": "Feature", "properties": { "osm_id": "6957204721", "name": "Doon Valley Hospital", "other_tags": "\"addr:district\"=>\"Dehradun\",\"addr:full\"=>\"55, Hardwar Road\",\"addr:postcode\"=>\"248001\",\"addr:state\"=>\"Uttarakhand\",\"amenity\"=>\"hospital\"" }, "geometry": { "type": "Point", "coordinates": [ 78.0480015, 30.3119982 ] } },
{ "type": "Feature", "properties": { "osm_id": "6957928419", "name": "Amritsar Eye Clinic", "other_tags": "\"addr:district\"=>\"Dehradun\",\"addr:full\"=>\"122/1 East Canal Road,Dalanwaal\",\"addr:postcode\"=>\"248001\",\"addr:state\"=>\"Uttarakhand\",\"amenity\"=>\"clinic\"" }, "geometry": { "type": "Point", "coordinates": [ 78.0509493, 30.3204124 ] } },
{ "type": "Feature", "properties": { "osm_id": "6958096955", "name": "Singh Eye Clinic and Hospital", "other_tags": "\"addr:district\"=>\"Dehradun\",\"addr:full\"=>\"230, Model Colony, Dr, Rn Singh Lane, Araghar, Hardwar Road\",\"addr:postcode\"=>\"248003\",\"addr:state\"=>\"Uttarakhand\",\"amenity\"=>\"hospital\",\"website\"=>\"https://eyeqindia.com/\"" }, "geometry": { "type": "Point", "coordinates": [ 78.0491656, 30.308365 ] } },
{ "type": "Feature", "properties": { "osm_id": "7134762667", "name": "Vinod Dhayani" }, "geometry": { "type": "Point", "coordinates": [ 78.0673009, 30.3187875 ] } },
{ "type": "Feature", "properties": { "osm_id": "7479937221", "name": "Dr. Kala ENT Centre", "other_tags": "\"addr:district\"=>\"Dehradun\",\"addr:full\"=>\"5, New Road, Opposite Mkp College, Race Course\",\"addr:postcode\"=>\"248001\",\"addr:state\"=>\"Uttarakhand\",\"amenity\"=>\"clinic\"" }, "geometry": { "type": "Point", "coordinates": [ 78.0433909, 30.3193454 ] } },
{ "type": "Feature", "properties": { "osm_id": "7479937227", "name": "Aarogyadham Super Speciality Hospital", "other_tags": "\"addr:district\"=>\"Dehradun\",\"addr:full\"=>\"6, New Road, Near Doon Hospital, Race Course\",\"addr:postcode\"=>\"248001\",\"addr:state\"=>\"Uttarakhand\",\"amenity\"=>\"hospital\"" }, "geometry": { "type": "Point", "coordinates": [ 78.0430172, 30.3191611 ] } },
{ "type": "Feature", "properties": { "osm_id": "7479937231", "name": "CGHS Dispensary", "other_tags": "\"addr:district\"=>\"Dehradun\",\"addr:full\"=>\"Old Nehru Colony, Dharampur\",\"addr:postcode\"=>\"248001\",\"addr:state\"=>\"Uttarakhand\",\"healthcare\"=>\"centre\",\"health_facility:type\"=>\"dispensary\"" }, "geometry": { "type": "Point", "coordinates": [ 78.0494428, 30.304025 ] } },
{ "type": "Feature", "properties": { "osm_id": "7479937256", "name": "CMI Hospital", "other_tags": "\"addr:district\"=>\"Dehradun\",\"addr:full\"=>\"54, Haridwar Road, Guru Nanak Vihar, Race Course, Dehradun\",\"addr:postcode\"=>\"248001\",\"addr:state\"=>\"Uttarakhand\",\"amenity\"=>\"hospital\"" }, "geometry": { "type": "Point", "coordinates": [ 78.0437622, 30.3167914 ] } },
{ "type": "Feature", "properties": { "osm_id": "7479937263", "name": "Pathak Urology & Stone Clinic", "other_tags": "\"addr:district\"=>\"Dehradun\",\"addr:full\"=>\"Kaveri Departmental Store, 33, Subhash Road, Opposite. Race Course\",\"addr:postcode\"=>\"248001\",\"addr:state\"=>\"Uttarakhand\",\"amenity\"=>\"clinic\"" }, "geometry": { "type": "Point", "coordinates": [ 78.0460002, 30.3192081 ] } },
{ "type": "Feature", "properties": { "osm_id": "7479937270", "name": "Dr. Rakesh ENT Clinic", "other_tags": "\"addr:district\"=>\"Dehradun\",\"addr:full\"=>\"Shop No:55, Haridwar Road, Guru Nanak Vihar, Dehradun\",\"addr:postcode\"=>\"248001\",\"addr:state\"=>\"Uttarakhand\",\"amenity\"=>\"clinic\"" }, "geometry": { "type": "Point", "coordinates": [ 78.048034, 30.311589 ] } },
{ "type": "Feature", "properties": { "osm_id": "7479937276", "name": "Gaur Ortho And Gynae Clinic", "other_tags": "\"addr:district\"=>\"Dehradun\",\"addr:full\"=>\"Phase 2, 68/1, 111, Dharampur Road, Old Nehru Colony, Dharampur\",\"addr:postcode\"=>\"248001\",\"addr:state\"=>\"Uttarakhand\",\"amenity\"=>\"clinic\"" }, "geometry": { "type": "Point", "coordinates": [ 78.0509177, 30.3044925 ] } },
{ "type": "Feature", "properties": { "osm_id": "7479937286", "name": "Dr. Ajay Sharma Hospital", "other_tags": "\"addr:district\"=>\"Dehradun\",\"addr:full\"=>\"17-C, New Road, Near Mkp College, Race Course\",\"addr:postcode\"=>\"248001\",\"addr:state\"=>\"Uttarakhand\",\"amenity\"=>\"hospital\"" }, "geometry": { "type": "Point", "coordinates": [ 78.046923, 30.3174427 ] } },
{ "type": "Feature", "properties": { "osm_id": "7479937303", "name": "City Heart Centre", "other_tags": "\"addr:district\"=>\"Dehradun\",\"addr:full\"=>\"17, Cross Road, Race Course, Dehradun\",\"addr:postcode\"=>\"248001\",\"addr:state\"=>\"Uttarakhand\",\"amenity\"=>\"hospital\"" }, "geometry": { "type": "Point", "coordinates": [ 78.0503125, 30.3196861 ] } },
{ "type": "Feature", "properties": { "osm_id": "7479937307", "name": "Doctor Alok Semwal", "other_tags": "\"addr:district\"=>\"Dehradun\",\"addr:full\"=>\"5, New Road, Opp. Mkp College, Race Course, Dehradun\",\"addr:postcode\"=>\"248001\",\"addr:state\"=>\"Uttarakhand\",\"amenity\"=>\"doctors\"" }, "geometry": { "type": "Point", "coordinates": [ 78.0434227, 30.3193953 ] } },
{ "type": "Feature", "properties": { "osm_id": "7479937310", "name": "Param Hospital", "other_tags": "\"addr:district\"=>\"Dehradun\",\"addr:full\"=>\"20, Balbir Road, Near Dena Bank, Dalanwala, Dehradun\",\"addr:postcode\"=>\"248001\",\"addr:state\"=>\"Uttarakhand\",\"amenity\"=>\"hospital\"" }, "geometry": { "type": "Point", "coordinates": [ 78.045445, 30.310123 ] } },
{ "type": "Feature", "properties": { "osm_id": "7479937317", "name": "Dr. Mrs Latika Joshi", "other_tags": "\"addr:district\"=>\"Dehradun\",\"addr:full\"=>\"1, 2, New Road, Near Doon Hospital, Race Course, Dehradun\",\"addr:postcode\"=>\"248001\",\"addr:state\"=>\"Uttarakhand\",\"amenity\"=>\"doctors\"" }, "geometry": { "type": "Point", "coordinates": [ 78.0431012, 30.3195119 ] } },
{ "type": "Feature", "properties": { "osm_id": "7479937323", "name": "Fortis Escorts Hospital, Dehradun", "other_tags": "\"addr:district\"=>\"Dehradun\",\"addr:full\"=>\"2nd Floor, Coronation Hospital, Curzon Road, Dalanwala, Dehradun\",\"addr:postcode\"=>\"248001\",\"addr:state\"=>\"Uttarakhand\",\"amenity\"=>\"hospital\"" }, "geometry": { "type": "Point", "coordinates": [ 78.057667, 30.320661 ] } },
{ "type": "Feature", "properties": { "osm_id": "7642965252", "name": "Oxford School of Excellence", "other_tags": "\"addr:city\"=>\"Dehradun\",\"addr:postcode\"=>\"248001\",\"addr:street\"=>\"5, Municipal Rd, Dalanwala, Dehradun, Uttarakhand 248001\",\"amenity\"=>\"school\",\"website\"=>\"https://www.oxfordschoolofexcellence.com/\"" }, "geometry": { "type": "Point", "coordinates": [ 78.0523205, 30.3179525 ] } },
{ "type": "Feature", "properties": { "osm_id": "8233482202", "name": "Primary Health Centre, Reetha Mandi", "other_tags": "\"addr:district\"=>\"Dehradun\",\"addr:full\"=>\"Ajabpur Kalan\",\"addr:postcode\"=>\"248001\",\"addr:state\"=>\"Uttarakhand\",\"description\"=>\"Primary Health Centre\",\"healthcare\"=>\"centre\"" }, "geometry": { "type": "Point", "coordinates": [ 78.0351197, 30.3051735 ] } },
{ "type": "Feature", "properties": { "osm_id": "8258004051", "name": "Firstcry", "other_tags": "\"addr:city\"=>\"Uttarakhand\",\"addr:postcode\"=>\"248003\",\"addr:street\"=>\"Haridwar Road\",\"organic\"=>\"yes\",\"payment:cash\"=>\"yes\",\"payment:debit_cards\"=>\"yes\",\"shop\"=>\"baby_goods\",\"website\"=>\"http://firstcry.com/\"" }, "geometry": { "type": "Point", "coordinates": [ 78.0484408, 30.307542 ] } },
{ "type": "Feature", "properties": { "osm_id": "8306209719", "name": "Sahdev Jewellers", "other_tags": "\"addr:city\"=>\"Dehradun\",\"addr:country\"=>\"IN\",\"addr:housenumber\"=>\"30\",\"addr:postcode\"=>\"248001\",\"addr:street\"=>\"Dhamawala bazaar\",\"email\"=>\"tarvindersahdev@gmail.com\",\"image\"=>\"https://goo.gl/maps/j33rJyoR9E9RLQX97\",\"internet_access\"=>\"wlan\",\"opening_hours\"=>\"Mo-Su 09:00-21:00\",\"operator\"=>\"tervinder\",\"payment:american_express\"=>\"yes\",\"payment:cash\"=>\"yes\",\"payment:coins\"=>\"yes\",\"payment:contactless\"=>\"yes\",\"payment:credit_cards\"=>\"yes\",\"payment:debit_cards\"=>\"yes\",\"payment:discover_card\"=>\"yes\",\"payment:maestro\"=>\"yes\",\"payment:mastercard\"=>\"yes\",\"payment:notes\"=>\"yes\",\"payment:telephone_cards\"=>\"yes\",\"payment:visa\"=>\"yes\",\"payment:visa_debit\"=>\"yes\",\"payment:visa_electron\"=>\"yes\",\"phone\"=>\"7500850022\",\"shop\"=>\"jewelry\",\"website\"=>\"https://www.dooncashyourgold.com/\",\"website:stock\"=>\"www.sahdevjewellers.com\"" }, "geometry": { "type": "Point", "coordinates": [ 78.0364731, 30.3197591 ] } },
{ "type": "Feature", "properties": { "osm_id": "8591321087", "name": "The Chandni Chowk Collection", "other_tags": "\"shop\"=>\"interior_decoration\"" }, "geometry": { "type": "Point", "coordinates": [ 78.0384877, 30.321445 ] } },
{ "type": "Feature", "properties": { "osm_id": "8818519318", "name": "ए.आर.टी. प्लस केंद्र", "other_tags": "\"addr:postcode\"=>\"248001\",\"addr:street\"=>\"Nardev Shastri Marg\",\"amenity\"=>\"hospital\",\"email\"=>\"artdoon@gmail.com\",\"name:en\"=>\"ART Plus Centre\",\"phone\"=>\"0135-2655529\"" }, "geometry": { "type": "Point", "coordinates": [ 78.0417924, 30.3206193 ] } },
{ "type": "Feature", "properties": { "osm_id": "9196195117", "name": "Queen Cosmetics", "other_tags": "\"addr:housenumber\"=>\"77\",\"addr:street\"=>\"Paltan Bazar\",\"phone\"=>\"9045466000\",\"shop\"=>\"beauty\"" }, "geometry": { "type": "Point", "coordinates": [ 78.0389256, 30.3218626 ] } },
{ "type": "Feature", "properties": { "osm_id": "9196195118", "name": "Narang Ethnics", "other_tags": "\"addr:street\"=>\"Paltan Bazar\",\"opening_hours\"=>\"Mo-Su 10:00-18:00+\",\"shop\"=>\"clothes\"" }, "geometry": { "type": "Point", "coordinates": [ 78.0390252, 30.3218873 ] } },
{ "type": "Feature", "properties": { "osm_id": "9207875917", "name": "Hari Store", "other_tags": "\"addr:street\"=>\"Mohini Road\",\"opening_hours\"=>\"Mo-Sa 09:00-22:00\",\"shop\"=>\"department_store\"" }, "geometry": { "type": "Point", "coordinates": [ 78.059009, 30.3080206 ] } },
{ "type": "Feature", "properties": { "osm_id": "9310249117", "name": "Manchanda Sweets", "other_tags": "\"addr:street\"=>\"Paltan Bazar\",\"opening_hours\"=>\"Mo-Su 10:00-20:00\",\"shop\"=>\"confectionery\"" }, "geometry": { "type": "Point", "coordinates": [ 78.0360972, 30.319251 ] } },
{ "type": "Feature", "properties": { "osm_id": "9326989825", "name": "City Post Office", "other_tags": "\"addr:postcode\"=>\"248001\",\"addr:street\"=>\"Moti Bazar Road\",\"amenity\"=>\"post_office\",\"opening_hours\"=>\"Mo-Su 10:00-17:00\"" }, "geometry": { "type": "Point", "coordinates": [ 78.0363394, 30.3217972 ] } },
{ "type": "Feature", "properties": { "osm_id": "9346951817", "name": "Dalanwala Sub Post Office", "other_tags": "\"addr:street\"=>\"Laxmi Road\",\"amenity\"=>\"post_office\"" }, "geometry": { "type": "Point", "coordinates": [ 78.0592439, 30.3134854 ] } },
{ "type": "Feature", "properties": { "osm_id": "9364536374", "name": "Prince Chowk", "place": "locality" }, "geometry": { "type": "Point", "coordinates": [ 78.0376598, 30.3153048 ] } },
{ "type": "Feature", "properties": { "osm_id": "9364665350", "name": "Araghar chowk", "place": "locality" }, "geometry": { "type": "Point", "coordinates": [ 78.048737, 30.3093239 ] } },
{ "type": "Feature", "properties": { "osm_id": "9385639317", "name": "ART Plus Centre Doon Hospital", "other_tags": "\"amenity\"=>\"hospital\"" }, "geometry": { "type": "Point", "coordinates": [ 78.0418042, 30.3206591 ] } },
{ "type": "Feature", "properties": { "osm_id": "9763846196", "other_tags": "\"ford\"=>\"yes\"" }, "geometry": { "type": "Point", "coordinates": [ 78.0650428, 30.3087457 ] } },
{ "type": "Feature", "properties": { "osm_id": "9813994422", "highway": "crossing" }, "geometry": { "type": "Point", "coordinates": [ 78.0654765, 30.3037907 ] } },
{ "type": "Feature", "properties": { "osm_id": "10026057510", "highway": "crossing" }, "geometry": { "type": "Point", "coordinates": [ 78.0655501, 30.3038105 ] } },
{ "type": "Feature", "properties": { "osm_id": "10029247806", "other_tags": "\"railway\"=>\"level_crossing\"" }, "geometry": { "type": "Point", "coordinates": [ 78.049565, 30.2898662 ] } },
{ "type": "Feature", "properties": { "osm_id": "10029247807", "other_tags": "\"railway\"=>\"level_crossing\"" }, "geometry": { "type": "Point", "coordinates": [ 78.0492872, 30.2900042 ] } },
{ "type": "Feature", "properties": { "osm_id": "10030956126", "name": "Windlass Residency" }, "geometry": { "type": "Point", "coordinates": [ 78.0565315, 30.3209428 ] } },
{ "type": "Feature", "properties": { "osm_id": "10841438208", "name": "Dr Vineet Tyagi Clinic", "other_tags": "\"addr:city\"=>\"Dehradun\",\"addr:postcode\"=>\"248001\",\"addr:street\"=>\"Near Indain Oil Petrol Pump, Malsi,\",\"amenity\"=>\"clinic\",\"healthcare\"=>\"clinic\",\"healthcare:speciality\"=>\"joint_replacement\",\"operator\"=>\"Novosalus\",\"operator:type\"=>\"private\"" }, "geometry": { "type": "Point", "coordinates": [ 78.0431496, 30.3091025 ] } },
{ "type": "Feature", "properties": { "osm_id": "10844974122", "name": "Hotel Embassy", "other_tags": "\"check_date\"=>\"2023-04-22\",\"tourism\"=>\"hotel\"" }, "geometry": { "type": "Point", "coordinates": [ 78.0372082, 30.3189768 ] } },
{ "type": "Feature", "properties": { "osm_id": "10844974123", "name": "The Trekkers Hostel", "other_tags": "\"check_date\"=>\"2023-04-22\",\"tourism\"=>\"hostel\"" }, "geometry": { "type": "Point", "coordinates": [ 78.0371564, 30.3190072 ] } },
{ "type": "Feature", "properties": { "osm_id": "10844974124", "name": "FabExpress Central Plaza", "other_tags": "\"check_date\"=>\"2023-04-22\",\"tourism\"=>\"hotel\"" }, "geometry": { "type": "Point", "coordinates": [ 78.0350195, 30.3184636 ] } },
{ "type": "Feature", "properties": { "osm_id": "10844974125", "name": "Super OYO Green Comfort", "other_tags": "\"check_date\"=>\"2023-04-22\",\"description\"=>\"not for foreigners\",\"tourism\"=>\"hotel\"" }, "geometry": { "type": "Point", "coordinates": [ 78.0353492, 30.3173061 ] } },
{ "type": "Feature", "properties": { "osm_id": "11187212888", "barrier": "gate" }, "geometry": { "type": "Point", "coordinates": [ 78.0498751, 30.3159899 ] } },
{ "type": "Feature", "properties": { "osm_id": "11625876736", "barrier": "cycle_barrier", "other_tags": "\"access\"=>\"no\",\"foot\"=>\"yes\"" }, "geometry": { "type": "Point", "coordinates": [ 78.041641, 30.3241739 ] } },
{ "type": "Feature", "properties": { "osm_id": "11813424354", "name": "Basil Cafe & Restaurant", "other_tags": "\"addr:city\"=>\"Dehradun\",\"addr:district\"=>\"Dehradun\",\"addr:housenumber\"=>\"Shop No. 1& 2, Ground Floor, 48 New Road\",\"addr:postcode\"=>\"248001\",\"addr:street\"=>\"Race Course, Opposite MKP College Entrance\",\"amenity\"=>\"restaurant\",\"cuisine\"=>\"pizza;coffee_shop;burger;chinese;sandwich;chicken;salad\",\"diet:non-vegetarian\"=>\"yes\",\"diet:vegetarian\"=>\"yes\",\"opening_hours\"=>\"Mo-Su 10:00-22:00\",\"phone\"=>\"+917300776850\",\"website\"=>\"https://www.basilcafeddn.com/\"" }, "geometry": { "type": "Point", "coordinates": [ 78.0442251, 30.3187992 ] } },
{ "type": "Feature", "properties": { "osm_id": "12593113009", "name": "Trek The Himalayas Renting Store and Pickup Point", "other_tags": "\"shop\"=>\"outdoor\"" }, "geometry": { "type": "Point", "coordinates": [ 78.0377834, 30.3162203 ] } },
{ "type": "Feature", "properties": { "osm_id": "12951512321", "name": "Krafting Digital", "other_tags": "\"addr:city\"=>\"Dehradun\",\"addr:district\"=>\"Dehradun\",\"addr:housenumber\"=>\"West Rest Camp, 7,\",\"addr:postcode\"=>\"248001\",\"addr:street\"=>\"Tyagi Road, Adjacent Dang CA classes Govind Nagar, Race Course\",\"office\"=>\"advertising_agency\",\"opening_hours\"=>\"Mo-Sa 10:00-19:00\",\"phone\"=>\"9760097910\",\"website\"=>\"https://kraftingdigital.com/\"" }, "geometry": { "type": "Point", "coordinates": [ 78.0356444, 30.3112485 ] } },
{ "type": "Feature", "properties": { "osm_id": "13269927501", "name": "Marigold Cafe", "other_tags": "\"amenity\"=>\"cafe\"" }, "geometry": { "type": "Point", "coordinates": [ 78.0464193, 30.3209365 ] } },
{ "type": "Feature", "properties": { "osm_id": "13270650921", "name": "National Book House", "other_tags": "\"shop\"=>\"books\"" }, "geometry": { "type": "Point", "coordinates": [ 78.0421414, 30.3223269 ] } },
{ "type": "Feature", "properties": { "osm_id": "13270659670", "other_tags": "\"amenity\"=>\"place_of_worship\",\"denomination\"=>\"muslim\"" }, "geometry": { "type": "Point", "coordinates": [ 78.035806, 30.319621 ] } },
{ "type": "Feature", "properties": { "osm_id": "13270675066", "name": "Pop corn kids school", "other_tags": "\"amenity\"=>\"school\"" }, "geometry": { "type": "Point", "coordinates": [ 78.0341801, 30.3155918 ] } },
{ "type": "Feature", "properties": { "osm_id": "13270682578", "highway": "bus_stop" }, "geometry": { "type": "Point", "coordinates": [ 78.0435792, 30.3232395 ] } },
{ "type": "Feature", "properties": { "osm_id": "13270684491", "other_tags": "\"amenity\"=>\"place_of_worship\",\"denomination\"=>\"muslim\"" }, "geometry": { "type": "Point", "coordinates": [ 78.0397174, 30.3220443 ] } },
{ "type": "Feature", "properties": { "osm_id": "13270691760", "name": "Le Roi", "other_tags": "\"tourism\"=>\"hotel\"" }, "geometry": { "type": "Point", "coordinates": [ 78.0342193, 30.3147238 ] } },
{ "type": "Feature", "properties": { "osm_id": "13270694377", "other_tags": "\"emergency\"=>\"fire_hydrant\"" }, "geometry": { "type": "Point", "coordinates": [ 78.0339977, 30.3148233 ] } },
{ "type": "Feature", "properties": { "osm_id": "13270695719", "other_tags": "\"historic\"=>\"locomotive\"" }, "geometry": { "type": "Point", "coordinates": [ 78.0340594, 30.314406 ] } },
{ "type": "Feature", "properties": { "osm_id": "13270704881", "other_tags": "\"amenity\"=>\"bank\",\"brand\"=>\"Axis Bank\"" }, "geometry": { "type": "Point", "coordinates": [ 78.0338701, 30.3172087 ] } },
{ "type": "Feature", "properties": { "osm_id": "13270706700", "man_made": "water_tower" }, "geometry": { "type": "Point", "coordinates": [ 78.0335012, 30.3102375 ] } },
{ "type": "Feature", "properties": { "osm_id": "13270707653", "other_tags": "\"amenity\"=>\"toilets\"" }, "geometry": { "type": "Point", "coordinates": [ 78.0443532, 30.3233808 ] } },
{ "type": "Feature", "properties": { "osm_id": "13270710643", "name": "Sanjay medical", "other_tags": "\"amenity\"=>\"pharmacy\"" }, "geometry": { "type": "Point", "coordinates": [ 78.0343032, 30.3177538 ] } },
{ "type": "Feature", "properties": { "osm_id": "13270712641", "other_tags": "\"amenity\"=>\"pharmacy\"" }, "geometry": { "type": "Point", "coordinates": [ 78.0340244, 30.3141093 ] } },
{ "type": "Feature", "properties": { "osm_id": "13270713663", "man_made": "water_tower" }, "geometry": { "type": "Point", "coordinates": [ 78.0403118, 30.321232 ] } },
{ "type": "Feature", "properties": { "osm_id": "13270714666", "highway": "bus_stop" }, "geometry": { "type": "Point", "coordinates": [ 78.0432626, 30.3229569 ] } },
{ "type": "Feature", "properties": { "osm_id": "13271462439", "other_tags": "\"amenity\"=>\"toilets\"" }, "geometry": { "type": "Point", "coordinates": [ 78.0335203, 30.3158028 ] } },
{ "type": "Feature", "properties": { "osm_id": "13272413960", "other_tags": "\"amenity\"=>\"fire_station\"" }, "geometry": { "type": "Point", "coordinates": [ 78.0404503, 30.318872 ] } },
{ "type": "Feature", "properties": { "osm_id": "13341919711", "barrier": "gate", "other_tags": "\"access\"=>\"no\",\"locked\"=>\"yes\"" }, "geometry": { "type": "Point", "coordinates": [ 78.0346327, 30.3146756 ] } },
{ "type": "Feature", "properties": { "osm_id": "13341919712", "barrier": "bollard" }, "geometry": { "type": "Point", "coordinates": [ 78.0338367, 30.3153624 ] } },
{ "type": "Feature", "properties": { "osm_id": "13341919713", "barrier": "bollard" }, "geometry": { "type": "Point", "coordinates": [ 78.0344671, 30.3153907 ] } },
{ "type": "Feature", "properties": { "osm_id": "13510108614", "name": "PanchMukhi Hanuman Mandir", "other_tags": "\"amenity\"=>\"place_of_worship\",\"religion\"=>\"hindu\"" }, "geometry": { "type": "Point", "coordinates": [ 78.048388, 30.3067917 ] } },
{ "type": "Feature", "properties": { "osm_id": "13510119154", "name": "Anytime Fitness", "other_tags": "\"addr:city\"=>\"dehradun\",\"addr:district\"=>\"uttrakhand\",\"addr:postcode\"=>\"248001\",\"addr:street\"=>\"Eastern Canal Road\",\"brand\"=>\"Anytime Fitness\",\"brand:wikidata\"=>\"Q4778364\",\"leisure\"=>\"fitness_centre\",\"opening_hours\"=>\"24/7\"" }, "geometry": { "type": "Point", "coordinates": [ 78.0491522, 30.3090086 ] } },
{ "type": "Feature", "properties": { "osm_id": "13624531947", "name": "DEAL DRDO", "other_tags": "\"military\"=>\"research_area\"" }, "geometry": { "type": "Point", "coordinates": [ 78.0676349, 30.3204623 ] } }
]
}
